[
  {
    "name": "IOCL - coco Snehlataganj",
    "address": "Central Jail RO, Rambagh , Snehlataganj Indore",
    "Number of slots": "Slots - 4 ( CCS-2, CHADEMO-2,)",
    "Contact": 18008332233,
    "latitude": 22.718237,
    "longitude": 75.833374
  },
  {
    "name": "TML Shyam Automotive",
    "address": "B-15, Vijay Nagar, Indore",
    "Number of slots": "Slots - 4 ( CCS-2, CHADEMO-2,)",
    "Contact": 9826044477,
    "latitude": 22.721722,
    "longitude": 75.833435
  },
  {
    "name": "Hriday Cars",
    "address": "104, RNT Marg, Indore",
    "Number of slots": "Slots - 4 ( CCS-2, CHADEMO-2,)",
    "Contact": 8005705705,
    "latitude": 22.717948,
    "longitude": 75.833487
  },
  {
    "name": "IOCL - coco Vijay Nagar",
    "address": "11, Vijay Nagar Indore",
    "Number of slots": "Slots - 4 ( CCS-2, CHADEMO-2,)",
    "Contact": 18008332233,
    "latitude": 22.720371,
    "longitude": 75.834549
  },
  {
    "name": "IOCL - coco Scheme 70",
    "address": "Shop No. 18, 19, Scheme 70, Vijay Nagar, Indore",
    "Number of slots": "Slots - 4 ( CCS-2, CHADEMO-2,)",
    "Contact": 18008332233,
    "latitude": 22.721256,
    "longitude": 75.835687
  },
  {
    "name": "IOCL - coco Akashwani",
    "address": "Akashwani Marg, Indore",
    "Number of slots": "Slots - 4 ( CCS-2, CHADEMO-2,)",
    "Contact": 18008332233,
    "latitude": 22.725913,
    "longitude": 75.835632
  },
  {
    "name": "IOCL - coco Rajgarh Road",
    "address": "Near Rajgarh Road Flyover, Indore",
    "Number of slots": "Slots - 4 ( CCS-2, CHADEMO-2,)",
    "Contact": 18008332233,
    "latitude": 22.714211,
    "longitude": 75.836914
  },
  {
    "name": "IOCL - coco Scheme 74",
    "address": "Shop No. 4, Scheme 74, Indore",
    "Number of slots": "Slots - 4 ( CCS-2, CHADEMO-2,)",
    "Contact": 18008332233,
    "latitude": 22.72525,
    "longitude": 75.838013
  },
  {
    "name": "IOCL - coco Bypass Road",
    "address": "Opp. IFFCO Chowk, Bypass Road, Indore",
    "Number of slots": "Slots - 4 ( CCS-2, CHADEMO-2,)",
    "Contact": 18008332233,
    "latitude": 22.709691,
    "longitude": 75.839294
  },
  {
    "name": "IOCL - coco BHEL",
    "address": "Opp. BHEL, Scheme 75, Indore",
    "Number of slots": "Slots - 4 ( CCS-2, CHADEMO-2,)",
    "Contact": 18008332233,
    "latitude": 22.707642,
    "longitude": 75.840073
  },
  {
    "name": "TML Shyam Automotive - Scheme 56",
    "address": "Shop No. 1, 2, Scheme 56, Indore",
    "Number of slots": "Slots - 4 ( CCS-2, CHADEMO-2,)",
    "Contact": 9826044477,
    "latitude": 22.716673,
    "longitude": 75.840668
  },
  {
    "name": "Hriday Cars - Scheme 56",
    "address": "Shop No. 15, Scheme 56, Indore",
    "Number of slots": "Slots - 4 ( CCS-2, CHADEMO-2,)",
    "Contact": 8005705705,
    "latitude": 22.716959,
    "longitude": 75.840332
  },
  {
    "name": "IOCL - coco Scheme 56",
    "address": "Near Super Market, Scheme 56, Indore",
    "Number of slots": "Slots - 4 ( CCS-2, CHADEMO-2,)",
    "Contact": 18008332233,
    "latitude": 22.716864,
    "longitude": 75.840637
  },
  {
    "name": "IOCL - coco Scheme 33",
    "address": "Opp. Shakti Nagar, Scheme 33, Indore",
    "Number of slots": "Slots - 4 ( CCS-2, CHADEMO-2,)",
    "Contact": 18008332233,
    "latitude": 22.717529,
    "longitude": 75.841919
  },
  {
    "name": "IOCL - coco Scheme 43",
    "address": "Opp. DAV Public School, Scheme 43, Indore",
    "Number of slots": "Slots - 4 ( CCS-2, CHADEMO-2,)",
    "Contact": 18008332233,
    "latitude": 22.716278,
    "longitude": 75.842468
  },
  {
    "name": "TML Shyam Automotive - Scheme 43",
    "address": "Shop No. 2, 3, Scheme 43, Indore",
    "Number of slots": "Slots - 4 ( CCS-2, CHADEMO-2,)",
    "Contact": 9826044477,
    "latitude": 22.71618,
    "longitude": 75.842468
  },
  {
    "name": "Hriday Cars - Scheme 43",
    "address": "Shop No. 20, Scheme 43, Indore",
    "Number of slots": "Slots - 4 ( CCS-2, CHADEMO-2,)",
    "Contact": 8005705705,
    "latitude": 22.71609,
    "longitude": 75.842468
  },
  {
    "name": "IOCL - coco Scheme 30",
    "address": "Opp. Akashwani, Scheme 30, Indore",
    "Number of slots": "Slots - 4 ( CCS-2, CHADEMO-2,)",
    "Contact": 18008332233,
    "latitude": 22.718468,
    "longitude": 75.841675
  },
  {
    "name": "IOCL - coco Scheme 32",
    "address": "Opp. GMCH, Scheme 32, Indore",
    "Number of slots": "Slots - 4 ( CCS-2, CHADEMO-2,)",
    "Contact": 18008332233,
    "latitude": 22.719623,
    "longitude": 75.860096
  },
  {
    "name": "IOCL - coco Scheme 44",
    "address": "Opp. Sukhiya Hotel, Scheme 44, Indore",
    "Number of slots": "Slots - 4 ( CCS-2, CHADEMO-2,)",
    "Contact": 18008332233,
    "latitude": 22.725504,
    "longitude": 75.856444
  },
  {
    "name": "IOCL - coco Scheme 39",
    "address": "Opp. IIM Indore, Scheme 39, Indore",
    "Number of slots": "Slots - 4 ( CCS-2, CHADEMO-2,)",
    "Contact": 18008332233,
    "latitude": 22.706674,
    "longitude": 75.862671
  },
  {
    "name": "IOCL - coco Scheme 66",
    "address": "Opp. Super Market, Scheme 66, Indore",
    "Number of slots": "Slots - 4 ( CCS-2, CHADEMO-2,)",
    "Contact": 18008332233,
    "latitude": 22.731067,
    "longitude": 75.85144
  },
  {
    "name": "IOCL - coco Scheme 67",
    "address": "Opp. Sanskar School, Scheme 67, Indore",
    "Number of slots": "Slots - 4 ( CCS-2, CHADEMO-2,)",
    "Contact": 18008332233,
    "latitude": 22.732548,
    "longitude": 75.84967
  },
  {
    "name": "IOCL - coco Scheme 68",
    "address": "Opp. IEM, Scheme 68, Indore",
    "Number of slots": "Slots - 4 ( CCS-2, CHADEMO-2,)",
    "Contact": 18008332233,
    "latitude": 22.734221,
    "longitude": 75.847931
  },
  {
    "name": "Mahindra - Ahuja Auto Abhikaran",
    "address": "70/1, Pipliya Rao, A-1, Vishnu Puri, Indore",
    "Number of slots": "AC - 1 Slots, 3PIN-15AMP Socket (Level 1) - 1 Slots",
    "Contact": 8225012098,
    "latitude": 22.698331,
    "longitude": 75.874451
  },
  {
    "name": "Tata Power EZ Charge",
    "address": "Opp. Kendriya Vidyalaya, Scheme 26, Indore",
    "Number of slots": "Slots - 2 ( CCS-2,)",
    "Contact": 18001024091,
    "latitude": 22.711865,
    "longitude": 75.858643
  },
  {
    "name": "Tata Power EZ Charge",
    "address": "Opp. Akashwani, Scheme 30, Indore",
    "Number of slots": "Slots - 2 ( CCS-2,)",
    "Contact": 18001024091,
    "latitude": 22.707169,
    "longitude": 75.861572
  },
  {
    "name": "Tata Power EZ Charge",
    "address": "Opp. IIM Indore, Scheme 39, Indore",
    "Number of slots": "Slots - 2 ( CCS-2,)",
    "Contact": 18001024091,
    "latitude": 22.706674,
    "longitude": 75.862671
  },
  {
    "name": "Tata Power EZ Charge",
    "address": "Opp. Sanskar School, Scheme 67, Indore",
    "Number of slots": "Slots - 2 ( CCS-2,)",
    "Contact": 18001024091,
    "latitude": 22.732548,
    "longitude": 75.84967
  },
  {
    "name": "Tata Power EZ Charge",
    "address": "Opp. IEM, Scheme 68, Indore",
    "Number of slots": "Slots - 2 ( CCS-2,)",
    "Contact": 18001024091,
    "latitude": 22.734221,
    "longitude": 75.847931
  },
  {
    "name": "Ather Energy",
    "address": "Shop No. 78, First Floor, Rajgarh Road, Indore",
    "Number of slots": "Slots - 4 ( CCS-2,)",
    "Contact": 9737912200,
    "latitude": 22.718075,
    "longitude": 75.859711
  },
  {
    "name": "Ather Energy",
    "address": "Shop No. 45-46, First Floor, Vijay Nagar, Indore",
    "Number of slots": "Slots - 4 ( CCS-2,)",
    "Contact": 9737912200,
    "latitude": 22.742218,
    "longitude": 75.854889
  },
  {
    "name": "Ather Energy",
    "address": "Shop No. 21, Second Floor, MG Road, Indore",
    "Number of slots": "Slots - 4 ( CCS-2,)",
    "Contact": 9737912200,
    "latitude": 22.728271,
    "longitude": 75.857544
  },
  {
    "name": "Ather Energy",
    "address": "Shop No. 18, Second Floor, Scheme 56, Indore",
    "Number of slots": "Slots - 4 ( CCS-2,)",
    "Contact": 9737912200,
    "latitude": 22.730347,
    "longitude": 75.848572
  }
]