[
    {
      "name": "Mahindra - Reva Electric Vehicle Charging Station",
      "address": "Sector 29 Noida",
      "Charging port Type": "AC - 1 Slot - IEC 60309 (Level 1)",
      "dealerDetail": "9811013227",
      "latitude": 28.572695,
      "longitude": 77.326268
    },
    {
      "name": "Tata Power - Sagar Surajpur Charging Station",
      "address": "E-36 Block E Industrial Area Surajpur Site 4 Greater",
      "Charging port Type": "DC, GBT",
      "dealerDetail": "918527000290",
      "latitude": 28.567625,
      "longitude": 77.353319
    },
    {
      "name": "Ayush Motors Noida Charging Station",
      "address": "D-247/4 A Block Sector 63 Noida",
      "Charging port Type": "Bharat DC-001",
      "dealerDetail": "18008332233",
      "latitude": 28.569476,
      "longitude": 77.321359
    },
    {
      "name": "Mahindra - Reva Electric Vehicle Charging Station",
      "address": "Sector 29 Noida",
      "Charging port Type": "AC - 1 Slot - IEC 60309 (Level 1)",
      "dealerDetail": "9811013227",
      "latitude": 28.572135,
      "longitude": 77.326335
    },
    {
      "name": "Electric Vehicle Charging Station",
      "address": "B Block Sector 63 Noida",
      "Charging port Type": "AC - 1 Slot - 3PIN-15AMP Socket (Level 1)",
      "dealerDetail": "9810267883",
      "latitude": 28.569279,
      "longitude": 77.321370
    },
    {
      "name": "EESL Electric Vehicle Charging Station",
      "address": "Besides SPCI Road Between Sector 124 & 125",
      "Charging port Type": "DC - 1 Slot - GBT (Level 3",
      "dealerDetail": "9871020665",
      "latitude": 28.57321,
      "longitude": 77.358511
    },
    {
      "name": "Electric Vehicle Charging Station",
      "address": "F-7 to F-8, sector-3",
      "Charging port Type": "Bharat DC-001",
      "latitude": 28.567201,
      "longitude": 77.325666
    },
    {
      "name": "EESL Electric Vehicle Charging Station",
      "address": "Near Tata Advance Systems Sector 59",
      "Charging port Type": "DC - 1 Slot - GBT (Level 3)",
      "dealerDetail": "9871020665",
      "latitude": 28.570159,
      "longitude": 77.321452
    },
    {
      "name": "Electric Vehicle Charging Station",
      "address": "Sector 63 a89",
      "Charging port Type": "AC - 1 Slot - 3PIN-15AMP Socket (Level 1)",
      "dealerDetail": "919958355850",
      "latitude": 28.57332,
      "longitude": 77.358500
    },
    {
      "name": "Textiles Charging Station",
      "address": "Op. C&R Textiles Ltd",
      "Charging port Type": "Bharat DC-001",
      "latitude": 28.565904,
      "longitude": 77.325296
    },
    {
      "name": "EESl - tata advance systems noida",
      "address": "near tata advance systems sector - 59",
      "latitude": 28.568205,
      "longitude": 77.325301
    },
    {
      "name": "EESL - jain air travels sector 2 noida",
      "address": "opp c-90 artek energy",
      "Charging port Type": "Bharat DC-001",
      "latitude": 28.582447,
      "longitude": 77.318460
    },
    {
      "name": "EESl - marie gold exports block a sector 64 noida",
      "address": "in front of marie gold exports ltd",
      "Charging port Type": "Bharat DC-001",
      "latitude": 28.566175,
      "longitude": 77.325285
    },
    {
      "name": "EESL - brahmputra market sector 29 noida",
      "address": "865, Maharishi Dayanand Marg, Sector 29, Noida",
      "dealerDetail": "7906001402",
      "latitude": 28.571003,
      "longitude": 77.326327
    },
    {
      "name": "EESL SPCI Noida",
      "address": "sector 124 & 125",
      "latitude": 28.571003,
      "longitude": 77.326327
    },
    {
      "name": "EESL H-Block Market, Haldiram",
      "address": "H-Block Market , Haldiram Car Parking, Sector-63 Noida",
      "Charging port Type": "GB/T",
      "latitude": 28.568246,
      "longitude": 77.325293
    },
    {
      "name": "EESL Adwant Chowk Noida",
      "address": "Noida",
      "latitude": 28.57747,
      "longitude": 77.285349
    },
    {
      "name": "Sector 3,Noida Charging Station",
      "address": "Sector 3,Noida,Uttar Pradesh,201301",
      "Charging port Type": "Bharat DC-001",
      "dealerDetail": "9650787352",
      "latitude": 28.569245,
      "longitude": 77.321443
    },
    {
      "name": "EESL RTO Office Noida",
      "address": "RTO OfficeSector 33A",
      "latitude": 28.562928,
      "longitude": 77.317580
    },
    {
      "name": "EESL Adwant Chowk Charging Station",
      "address": "Sector 142 Noida",
      "Charging port Type": "Bharat DC-001",
      "latitude": 28.583139,
      "longitude": 77.318448
    },
    {
      "name": "EESL - Ganga Shopping Complex Noida",
      "address": "Ganga Shopping Complex, Sector 29, Noida",
      "latitude": 28.572866,
      "longitude": 77.323746
    },
    {
      "name": "EESL - Kirti Mann Plaza Noida",
      "address": "Between kirti mann plaza and NMC hospital Sector 30 Noida",
      "Charging port Type": "AC TYPE 1",
      "dealerDetail": "18001803580",
      "latitude": 28.569564,
      "longitude": 77.321385
    },
    {
      "name": "EESL RTO Office Noida",
      "address": "Near RTO OfficeSector 33A, Noida, Ghaziabad",
      "Charging port Type": "Bharat DC-001",
      "latitude": 28.556502,
      "longitude": 77.348744
    },
    {
      "name": "EESL H-Block Market",
      "address": "H-Block Market , Haldiram Car Parking, Sector-63 Noida",
      "Charging port Type": "Bharat DC-001",
      "latitude": 28.568504,
      "longitude": 77.325276
    },
    {
      "name": "TML - Sagar Motors - Surajpur",
      "address": "Kasna Gol Chakkar, Block A, Industrial Area, Sector Swarn Nagri, Greater Noida",
      "Charging port Type": "GB/T",
      "latitude": 28.577216,
      "longitude": 77.285356
    },
    {
      "name": "TML - Sagar Motors - Udhyog Marg",
      "address": "Sector 5, Noida, Uttar Pradesh",
      "Charging port Type": "GB/T",
      "latitude": 28.572693,
      "longitude": 77.326222
    },
    {
      "name": "Shiva Motocorp, Sec-5 Charging Station",
      "address": "Shiva Motocorp - A Unit of Narnoli Apparels Pvt. Ltd. Plot A-108, Jaguar Land-rover showroom, Sector-5, Noida",
      "Charging port Type": "CCS-2",
      "dealerDetail": "18008332233",
      "latitude": 28.572695,
      "longitude": 77.326268
    },
    {
      "name": "Allied KIA",
      "address": "W-9 W Block sector- 11 Noida Utter Pradesh",
      "Charging port Type": "CCS-2",
      "dealerDetail": "8527000290",
      "latitude": 28.569245,
      "longitude": 77.321443
    },
    {
      "name": "Tata Power - Private Charging Station(only restricted use)",
      "address": "The Tata Power Company Limited Shatabdi Bhavan",
      "Charging port Type": "AC TYPE 2",
      "dealerDetail": "18008332233",
      "latitude": 28.562928,
      "longitude": 77.31758
    },
    {
      "name": "Ginger Hotel Sector- 63",
      "address": "Ginger Hotel Noida East East - Block-H Sector- 63",
      "Charging port Type": "CCS-2, Type 2",
      "dealerDetail": "9223581898",
      "latitude": 28.583139,
      "longitude": 77.318448
    },
    {
      "name": "Hyphen Business Hotel Sec 62",
      "address": "Hyphen Business hotel C 45 Sector 62",
      "Charging port Type": "CCS-2",
      "dealerDetail": "9811013227",
      "latitude": 28.581946,
      "longitude": 77.331219
    }
  ]
  